{"businesses": [{"id": "YvWQMlMjtYmVmheH97tTlQ", "alias": "crab-house-all-you-can-eat-seafood-new-york", "name": "Crab House All You Can Eat Seafood", "image_url": "https://s3-media2.fl.yelpcdn.com/bphoto/1J0qtJbyF3aYyTobEOzjgg/o.jpg", "is_closed": false, "url": "https://www.yelp.com/biz/crab-house-all-you-can-eat-seafood-new-york?adjust_creative=94J5gLi-jASHpNRcM4Ky3g&utm_campaign=yelp_api_v3&utm_medium=api_v3_business_search&utm_source=94J5gLi-jASHpNRcM4Ky3g", "review_count": 653, "categories": [{"alias": "buffets", "title": "Buffets"}, {"alias": "seafood", "title": "Seafood"}, {"alias": "cajun", "title": "Cajun/Creole"}], "rating": 4.5, "coordinates": {"latitude": 40.759664, "longitude": -73.969776}, "transactions": ["pickup", "delivery"], "price": "$$$$", "location": {"address1": "135 E 55th St", "address2": null, "address3": "", "city": "New York", "zip_code": "10022", "country": "US", "state": "NY", "display_address": ["135 E 55th St", "New York, NY 10022"]}, "phone": "+12129330264", "display_phone": "(212) 933-0264", "distance": 5918.19766046387}, {"id": "hdiuRS9sVZSMReZm4oV5SA", "alias": "da-andrea-new-york", "name": "Da Andrea", "image_url": "https://s3-media2.fl.yelpcdn.com/bphoto/t_rOzrQt1fEtxgeKlGR8Rw/o.jpg", "is_closed": false, "url": "https://www.yelp.com/biz/da-andrea-new-york?adjust_creative=94J5gLi-jASHpNRcM4Ky3g&utm_campaign=yelp_api_v3&utm_medium=api_v3_business_search&utm_source=94J5gLi-jASHpNRcM4Ky3g", "review_count": 1770, "categories": [{"alias": "italian", "title": "Italian"}, {"alias": "mediterranean", "title": "Mediterranean"}, {"alias": "breakfast_brunch", "title": "Breakfast & Brunch"}], "rating": 4.5, "coordinates": {"latitude": 40.736218, "longitude": -73.99597}, "transactions": ["restaurant_reservation", "pickup", "delivery"], "price": "$$", "location": {"address1": "35 W 13th St", "address2": "", "address3": "", "city": "New York", "zip_code": "10011", "country": "US", "state": "NY", "display_address": ["35 W 13th St", "New York, NY 10011"]}, "phone": "+12123671979", "display_phone": "(212) 367-1979", "distance": 3545.6736041432987}, {"id": "ehUuSk5gPTCQmwS_ubgKRA", "alias": "upstate-craft-beer-and-oyster-bar-new-york-4", "name": "Upstate Craft Beer & Oyster Bar", "image_url": "https://s3-media2.fl.yelpcdn.com/bphoto/V3pVDPhGZdbBueIMxkc8uw/o.jpg", "is_closed": false, "url": "https://www.yelp.com/biz/upstate-craft-beer-and-oyster-bar-new-york-4?adjust_creative=94J5gLi-jASHpNRcM4Ky3g&utm_campaign=yelp_api_v3&utm_medium=api_v3_business_search&utm_source=94J5gLi-jASHpNRcM4Ky3g", "review_count": 2045, "categories": [{"alias": "seafood", "title": "Seafood"}], "rating": 4.5, "coordinates": {"latitude": 40.726373, "longitude": -73.986557}, "transactions": ["delivery", "restaurant_reservation"], "price": "$$", "location": {"address1": "95 1st Ave", "address2": null, "address3": "", "city": "New York", "zip_code": "10003", "country": "US", "state": "NY", "display_address": ["95 1st Ave", "New York, NY 10003"]}, "phone": "+16467915400", "display_phone": "(646) 791-5400", "distance": 2244.3208230778678}, {"id": "6jPju63RQy3P3ov9-ejP7g", "alias": "sea-wolf-williamsburg-waterfront-brooklyn", "name": "Sea Wolf - Williamsburg Waterfront", "image_url": "https://s3-media3.fl.yelpcdn.com/bphoto/oTb3rG98tjxLpnfBoxFqcA/o.jpg", "is_closed": false, "url": "https://www.yelp.com/biz/sea-wolf-williamsburg-waterfront-brooklyn?adjust_creative=94J5gLi-jASHpNRcM4Ky3g&utm_campaign=yelp_api_v3&utm_medium=api_v3_business_search&utm_source=94J5gLi-jASHpNRcM4Ky3g", "review_count": 266, "categories": [{"alias": "seafood", "title": "Seafood"}], "rating": 4.0, "coordinates": {"latitude": 40.709946, "longitude": -73.968608}, "transactions": ["pickup", "delivery"], "price": "$$$", "location": {"address1": "420 Kent Ave", "address2": null, "address3": "", "city": "Brooklyn", "zip_code": "11249", "country": "US", "state": "NY", "display_address": ["420 Kent Ave", "Brooklyn, NY 11249"]}, "phone": "+17182332792", "display_phone": "(718) 233-2792", "distance": 950.8280825837168}, {"id": "LpVbI-E9C-CSp7WhU5h2Iw", "alias": "fishmarket-restaurant-new-york", "name": "Fishmarket Restaurant", "image_url": "https://s3-media1.fl.yelpcdn.com/bphoto/-rU1vuRmHkzA6nhmoVRHnQ/o.jpg", "is_closed": false, "url": "https://www.yelp.com/biz/fishmarket-restaurant-new-york?adjust_creative=94J5gLi-jASHpNRcM4Ky3g&utm_campaign=yelp_api_v3&utm_medium=api_v3_business_search&utm_source=94J5gLi-jASHpNRcM4Ky3g", "review_count": 623, "categories": [{"alias": "seafood", "title": "Seafood"}, {"alias": "divebars", "title": "Dive Bars"}, {"alias": "malaysian", "title": "Malaysian"}], "rating": 4.5, "coordinates": {"latitude": 40.70717, "longitude": -74.00192}, "transactions": ["delivery"], "price": "$$", "location": {"address1": "111 South St", "address2": "", "address3": "", "city": "New York", "zip_code": "10038", "country": "US", "state": "NY", "display_address": ["111 South St", "New York, NY 10038"]}, "phone": "+19173638101", "display_phone": "(917) 363-8101", "distance": 1914.2042685795523}, {"id": "EDucGBSfQ0YIbxdHS-KnCg", "alias": "sagaponack-new-york-6", "name": "Sagaponack", "image_url": "https://s3-media2.fl.yelpcdn.com/bphoto/13NjLQvLLMtgCRnNNMUTyQ/o.jpg", "is_closed": false, "url": "https://www.yelp.com/biz/sagaponack-new-york-6?adjust_creative=94J5gLi-jASHpNRcM4Ky3g&utm_campaign=yelp_api_v3&utm_medium=api_v3_business_search&utm_source=94J5gLi-jASHpNRcM4Ky3g", "review_count": 210, "categories": [{"alias": "bars", "title": "Bars"}, {"alias": "seafood", "title": "Seafood"}, {"alias": "gourmet", "title": "Specialty Food"}], "rating": 4.5, "coordinates": {"latitude": 40.741019, "longitude": -73.990692}, "transactions": ["pickup", "delivery"], "price": "$$", "location": {"address1": "4 W 22nd St", "address2": "", "address3": null, "city": "New York", "zip_code": "10010", "country": "US", "state": "NY", "display_address": ["4 W 22nd St", "New York, NY 10010"]}, "phone": "+12122292226", "display_phone": "(212) 229-2226", "distance": 3900.447793971487}, {"id": "zfiXI8AwYBRfWjPyv6oh3w", "alias": "lobster-place-new-york-4", "name": "Lobster Place", "image_url": "https://s3-media4.fl.yelpcdn.com/bphoto/zgCitW9dNXpxlehrZuGBTg/o.jpg", "is_closed": false, "url": "https://www.yelp.com/biz/lobster-place-new-york-4?adjust_creative=94J5gLi-jASHpNRcM4Ky3g&utm_campaign=yelp_api_v3&utm_medium=api_v3_business_search&utm_source=94J5gLi-jASHpNRcM4Ky3g", "review_count": 1464, "categories": [{"alias": "seafoodmarkets", "title": "Seafood Markets"}, {"alias": "seafood", "title": "Seafood"}], "rating": 4.0, "coordinates": {"latitude": 40.7427413905213, "longitude": -74.0060118057704}, "transactions": ["pickup", "delivery"], "price": "$$", "location": {"address1": "75 9th Ave", "address2": "", "address3": "", "city": "New York", "zip_code": "10011", "country": "US", "state": "NY", "display_address": ["75 9th Ave", "New York, NY 10011"]}, "phone": "+12122555672", "display_phone": "(212) 255-5672", "distance": 4574.307930684353}, {"id": "1x2hn3e9sCCZca1cnRTpEg", "alias": "claw-daddys-brooklyn", "name": "Claw Daddy's", "image_url": "https://s3-media3.fl.yelpcdn.com/bphoto/ABHo2xn4dcpVspJkaQ_g-g/o.jpg", "is_closed": false, "url": "https://www.yelp.com/biz/claw-daddys-brooklyn?adjust_creative=94J5gLi-jASHpNRcM4Ky3g&utm_campaign=yelp_api_v3&utm_medium=api_v3_business_search&utm_source=94J5gLi-jASHpNRcM4Ky3g", "review_count": 613, "categories": [{"alias": "cajun", "title": "Cajun/Creole"}, {"alias": "seafood", "title": "Seafood"}], "rating": 4.0, "coordinates": {"latitude": 40.68561, "longitude": -73.98035}, "transactions": ["pickup", "delivery"], "price": "$$", "location": {"address1": "31 3rd Ave", "address2": "", "address3": null, "city": "Brooklyn", "zip_code": "11217", "country": "US", "state": "NY", "display_address": ["31 3rd Ave", "Brooklyn, NY 11217"]}, "phone": "+13473188893", "display_phone": "(347) 318-8893", "distance": 2377.6318534796383}, {"id": "grg_0Zt9WwCmXHPjWu7b-Q", "alias": "bk-seafood-market-brooklyn", "name": "BK Seafood Market", "image_url": "https://s3-media2.fl.yelpcdn.com/bphoto/DFufG_mdqsA6-ZYfyUducA/o.jpg", "is_closed": false, "url": "https://www.yelp.com/biz/bk-seafood-market-brooklyn?adjust_creative=94J5gLi-jASHpNRcM4Ky3g&utm_campaign=yelp_api_v3&utm_medium=api_v3_business_search&utm_source=94J5gLi-jASHpNRcM4Ky3g", "review_count": 26, "categories": [{"alias": "cantonese", "title": "Cantonese"}, {"alias": "seafood", "title": "Seafood"}], "rating": 4.5, "coordinates": {"latitude": 40.63236, "longitude": -74.01091}, "transactions": ["pickup", "delivery"], "location": {"address1": "842 64th St", "address2": null, "address3": "", "city": "Brooklyn", "zip_code": "11220", "country": "US", "state": "NY", "display_address": ["842 64th St", "Brooklyn, NY 11220"]}, "phone": "+17188366888", "display_phone": "(718) 836-6888", "distance": 8715.400294719951}, {"id": "ryvBsB9FrBBZDak87iGS1w", "alias": "sea-fire-grill-new-york", "name": "Sea Fire Grill", "image_url": "https://s3-media3.fl.yelpcdn.com/bphoto/exMqPoCEi2btoGtAd8kcIQ/o.jpg", "is_closed": false, "url": "https://www.yelp.com/biz/sea-fire-grill-new-york?adjust_creative=94J5gLi-jASHpNRcM4Ky3g&utm_campaign=yelp_api_v3&utm_medium=api_v3_business_search&utm_source=94J5gLi-jASHpNRcM4Ky3g", "review_count": 1452, "categories": [{"alias": "seafood", "title": "Seafood"}, {"alias": "steak", "title": "Steakhouses"}, {"alias": "bars", "title": "Bars"}], "rating": 4.5, "coordinates": {"latitude": 40.754694494554826, "longitude": -73.97222533963885}, "transactions": ["delivery"], "price": "$$$", "location": {"address1": "158 E 48th St", "address2": null, "address3": "", "city": "New York", "zip_code": "10017", "country": "US", "state": "NY", "display_address": ["158 E 48th St", "New York, NY 10017"]}, "phone": "+12129353785", "display_phone": "(212) 935-3785", "distance": 5338.186447380656}, {"id": "clXeABm-jiPEUypcDIzDIw", "alias": "mermaid-oyster-bar-new-york-4", "name": "Mermaid Oyster Bar", "image_url": "https://s3-media1.fl.yelpcdn.com/bphoto/rj0nvZ-tZejM3VUq1971Qg/o.jpg", "is_closed": false, "url": "https://www.yelp.com/biz/mermaid-oyster-bar-new-york-4?adjust_creative=94J5gLi-jASHpNRcM4Ky3g&utm_campaign=yelp_api_v3&utm_medium=api_v3_business_search&utm_source=94J5gLi-jASHpNRcM4Ky3g", "review_count": 82, "categories": [{"alias": "seafood", "title": "Seafood"}, {"alias": "cocktailbars", "title": "Cocktail Bars"}], "rating": 4.5, "coordinates": {"latitude": 40.72922, "longitude": -74.00126}, "transactions": ["pickup", "delivery"], "location": {"address1": "89 MacDougal St", "address2": "", "address3": null, "city": "New York", "zip_code": "10012", "country": "US", "state": "NY", "display_address": ["89 MacDougal St", "New York, NY 10012"]}, "phone": "+12122600100", "display_phone": "(212) 260-0100", "distance": 3089.13057574802}, {"id": "MYh3iKpuo1HQUoHUyzA0BQ", "alias": "bar-crudo-brooklyn-2", "name": "Bar Crudo", "image_url": "https://s3-media3.fl.yelpcdn.com/bphoto/cgPPQ_01TaMNKdPxTJaItQ/o.jpg", "is_closed": false, "url": "https://www.yelp.com/biz/bar-crudo-brooklyn-2?adjust_creative=94J5gLi-jASHpNRcM4Ky3g&utm_campaign=yelp_api_v3&utm_medium=api_v3_business_search&utm_source=94J5gLi-jASHpNRcM4Ky3g", "review_count": 232, "categories": [{"alias": "seafood", "title": "Seafood"}, {"alias": "cocktailbars", "title": "Cocktail Bars"}, {"alias": "breakfast_brunch", "title": "Breakfast & Brunch"}], "rating": 4.5, "coordinates": {"latitude": 40.670226, "longitude": -73.985768}, "transactions": ["pickup", "delivery"], "price": "$$$", "location": {"address1": "412 Fifth Ave", "address2": null, "address3": "", "city": "Brooklyn", "zip_code": "11215", "country": "US", "state": "NY", "display_address": ["412 Fifth Ave", "Brooklyn, NY 11215"]}, "phone": "+17187011894", "display_phone": "(718) 701-1894", "distance": 4124.097573424614}, {"id": "4H_wJKFIh7Xfu4OXQ-_6gg", "alias": "the-monster-crab-bayside-new-york", "name": "The Monster Crab - Bayside", "image_url": "https://s3-media2.fl.yelpcdn.com/bphoto/Xj1jOFD2uHmX8WcogRvAaw/o.jpg", "is_closed": false, "url": "https://www.yelp.com/biz/the-monster-crab-bayside-new-york?adjust_creative=94J5gLi-jASHpNRcM4Ky3g&utm_campaign=yelp_api_v3&utm_medium=api_v3_business_search&utm_source=94J5gLi-jASHpNRcM4Ky3g", "review_count": 12, "categories": [{"alias": "cajun", "title": "Cajun/Creole"}, {"alias": "seafood", "title": "Seafood"}, {"alias": "cocktailbars", "title": "Cocktail Bars"}], "rating": 4.5, "coordinates": {"latitude": 40.77863165898115, "longitude": -73.77855}, "transactions": ["pickup", "delivery"], "location": {"address1": "211-35 26th Ave", "address2": "", "address3": "", "city": "New York", "zip_code": "11360", "country": "US", "state": "NY", "display_address": ["211-35 26th Ave", "New York, NY 11360"]}, "phone": "+17188198218", "display_phone": "(718) 819-8218", "distance": 18686.657386615105}, {"id": "DGhWO1sUWydVeR5j5ZZaMw", "alias": "la-grande-boucherie-new-york-2", "name": "La Grande Boucherie", "image_url": "https://s3-media3.fl.yelpcdn.com/bphoto/b9URGcuuhnLq7J-__pHIng/o.jpg", "is_closed": false, "url": "https://www.yelp.com/biz/la-grande-boucherie-new-york-2?adjust_creative=94J5gLi-jASHpNRcM4Ky3g&utm_campaign=yelp_api_v3&utm_medium=api_v3_business_search&utm_source=94J5gLi-jASHpNRcM4Ky3g", "review_count": 1935, "categories": [{"alias": "french", "title": "French"}, {"alias": "steak", "title": "Steakhouses"}, {"alias": "cocktailbars", "title": "Cocktail Bars"}], "rating": 4.5, "coordinates": {"latitude": 40.7626274, "longitude": -73.98084109999999}, "transactions": ["pickup", "delivery"], "price": "$$$", "location": {"address1": "145 W 53rd St", "address2": "", "address3": null, "city": "New York", "zip_code": "10019", "country": "US", "state": "NY", "display_address": ["145 W 53rd St", "New York, NY 10019"]}, "phone": "+12125107714", "display_phone": "(212) 510-7714", "distance": 6189.5255195058535}, {"id": "20LSOx_4K2wghTsUx4gSsg", "alias": "oceanic-boil-jackson-heights", "name": "Oceanic Boil", "image_url": "https://s3-media1.fl.yelpcdn.com/bphoto/aF45SWZgZoZsVsBXgEgDig/o.jpg", "is_closed": false, "url": "https://www.yelp.com/biz/oceanic-boil-jackson-heights?adjust_creative=94J5gLi-jASHpNRcM4Ky3g&utm_campaign=yelp_api_v3&utm_medium=api_v3_business_search&utm_source=94J5gLi-jASHpNRcM4Ky3g", "review_count": 696, "categories": [{"alias": "cajun", "title": "Cajun/Creole"}, {"alias": "seafood", "title": "Seafood"}, {"alias": "bars", "title": "Bars"}], "rating": 4.5, "coordinates": {"latitude": 40.7498297, "longitude": -73.8821356}, "transactions": ["pickup", "delivery"], "price": "$$", "location": {"address1": "84-20 37th Ave", "address2": "", "address3": "", "city": "Jackson Heights", "zip_code": "11372", "country": "US", "state": "NY", "display_address": ["84-20 37th Ave", "Jackson Heights, NY 11372"]}, "phone": "+19292966338", "display_phone": "(929) 296-6338", "distance": 9480.180012136341}, {"id": "sEuLm5fQgWkkiYBt6OphWQ", "alias": "greenpoint-fish-and-lobster-brooklyn", "name": "Greenpoint Fish & Lobster", "image_url": "https://s3-media4.fl.yelpcdn.com/bphoto/fYWeD89OT8aKKpAWbsRWuw/o.jpg", "is_closed": false, "url": "https://www.yelp.com/biz/greenpoint-fish-and-lobster-brooklyn?adjust_creative=94J5gLi-jASHpNRcM4Ky3g&utm_campaign=yelp_api_v3&utm_medium=api_v3_business_search&utm_source=94J5gLi-jASHpNRcM4Ky3g", "review_count": 385, "categories": [{"alias": "seafood", "title": "Seafood"}, {"alias": "seafoodmarkets", "title": "Seafood Markets"}], "rating": 4.0, "coordinates": {"latitude": 40.724128, "longitude": -73.9491199}, "transactions": ["pickup"], "price": "$$", "location": {"address1": "114 Nassau Ave", "address2": "", "address3": "", "city": "Brooklyn", "zip_code": "11222", "country": "US", "state": "NY", "display_address": ["114 Nassau Ave", "Brooklyn, NY 11222"]}, "phone": "+17183131913", "display_phone": "(718) 313-1913", "distance": 3171.484903303842}, {"id": "2LcsDUTlvovnFz-SEcSJTQ", "alias": "astoria-seafood-long-island-city", "name": "Astoria Seafood", "image_url": "https://s3-media2.fl.yelpcdn.com/bphoto/epAAhTn5FDqlBBZKpWA_Gg/o.jpg", "is_closed": false, "url": "https://www.yelp.com/biz/astoria-seafood-long-island-city?adjust_creative=94J5gLi-jASHpNRcM4Ky3g&utm_campaign=yelp_api_v3&utm_medium=api_v3_business_search&utm_source=94J5gLi-jASHpNRcM4Ky3g", "review_count": 883, "categories": [{"alias": "seafood", "title": "Seafood"}, {"alias": "greek", "title": "Greek"}, {"alias": "mediterranean", "title": "Mediterranean"}], "rating": 4.0, "coordinates": {"latitude": 40.754, "longitude": -73.9298699}, "transactions": ["pickup", "delivery"], "price": "$$", "location": {"address1": "37-10 33rd St", "address2": "", "address3": "", "city": "Long Island City", "zip_code": "11101", "country": "US", "state": "NY", "display_address": ["37-10 33rd St", "Long Island City, NY 11101"]}, "phone": "+17183922680", "display_phone": "(718) 392-2680", "distance": 6680.097505259333}, {"id": "O4rYM6YBj90W2u7RhG3Mvg", "alias": "maison-premiere-brooklyn", "name": "Maison Premiere", "image_url": "https://s3-media3.fl.yelpcdn.com/bphoto/sYBR9fpPCOcYF6mE6eQ2MA/o.jpg", "is_closed": false, "url": "https://www.yelp.com/biz/maison-premiere-brooklyn?adjust_creative=94J5gLi-jASHpNRcM4Ky3g&utm_campaign=yelp_api_v3&utm_medium=api_v3_business_search&utm_source=94J5gLi-jASHpNRcM4Ky3g", "review_count": 1225, "categories": [{"alias": "seafood", "title": "Seafood"}, {"alias": "bars", "title": "Bars"}, {"alias": "venues", "title": "Venues & Event Spaces"}], "rating": 4.0, "coordinates": {"latitude": 40.7142634, "longitude": -73.96166459999999}, "transactions": ["pickup", "delivery"], "price": "$$$", "location": {"address1": "298 Bedford Ave", "address2": "", "address3": "", "city": "Brooklyn", "zip_code": "11249", "country": "US", "state": "NY", "display_address": ["298 Bedford Ave", "Brooklyn, NY 11249"]}, "phone": "+13478895710", "display_phone": "(347) 889-5710", "distance": 1684.5140585958677}, {"id": "WJS06XxRdc6DD1s4LWE9HA", "alias": "fish-cheeks-new-york", "name": "Fish Cheeks", "image_url": "https://s3-media2.fl.yelpcdn.com/bphoto/pqupe3fe52869QQ23KkiBg/o.jpg", "is_closed": false, "url": "https://www.yelp.com/biz/fish-cheeks-new-york?adjust_creative=94J5gLi-jASHpNRcM4Ky3g&utm_campaign=yelp_api_v3&utm_medium=api_v3_business_search&utm_source=94J5gLi-jASHpNRcM4Ky3g", "review_count": 1206, "categories": [{"alias": "seafood", "title": "Seafood"}, {"alias": "thai", "title": "Thai"}, {"alias": "raw_food", "title": "Live/Raw Food"}], "rating": 4.5, "coordinates": {"latitude": 40.7258, "longitude": -73.9927}, "transactions": ["pickup", "delivery"], "price": "$$", "location": {"address1": "55 Bond St", "address2": "", "address3": null, "city": "New York", "zip_code": "10012", "country": "US", "state": "NY", "display_address": ["55 Bond St", "New York, NY 10012"]}, "phone": "+12126772223", "display_phone": "(212) 677-2223", "distance": 2369.9436446415284}, {"id": "Roj5hZ0Tq22ruarnGnLiVQ", "alias": "seaport-house-new-york", "name": "Seaport House", "image_url": "https://s3-media2.fl.yelpcdn.com/bphoto/sSILOlac8Ch1uHD1eQ7LaQ/o.jpg", "is_closed": false, "url": "https://www.yelp.com/biz/seaport-house-new-york?adjust_creative=94J5gLi-jASHpNRcM4Ky3g&utm_campaign=yelp_api_v3&utm_medium=api_v3_business_search&utm_source=94J5gLi-jASHpNRcM4Ky3g", "review_count": 68, "categories": [{"alias": "seafood", "title": "Seafood"}, {"alias": "cocktailbars", "title": "Cocktail Bars"}], "rating": 4.0, "coordinates": {"latitude": 40.707503, "longitude": -74.001945}, "transactions": ["pickup", "delivery"], "price": "$$", "location": {"address1": "229 Front St", "address2": "", "address3": null, "city": "New York", "zip_code": "10038", "country": "US", "state": "NY", "display_address": ["229 Front St", "New York, NY 10038"]}, "phone": "+12124335800", "display_phone": "(212) 433-5800", "distance": 1914.8316066761165}], "total": 16400, "region": {"center": {"longitude": -73.97918701171875, "latitude": 40.706977710584276}}}